{"type": "FeatureCollection", "features": [{"geometry": {"type": "Point", "coordinates": [-118.1312808, 34.1416057]}, "type": "Feature", "properties": {"category": "Groccery Store", "hours": "6am - 9pm", "description": "Get grocceries here", "name": "Keyless Foods", "phone": "594-795-5037", "storeid": "507c692a-a183-4a00-bc49-0e9178d1a9bf"}}, {"geometry": {"type": "Point", "coordinates": [-117.2960054, 34.2608508]}, "type": "Feature", "properties": {"category": "Groccery Store", "hours": "7am - 11pm", "description": "Get grocceries here", "name": "Halffood", "phone": "352-538-2585", "storeid": "3cd193d5-0cc7-4ca8-9b13-c3c7701c6d3d"}}, {"geometry": {"type": "Point", "coordinates": [-117.8590357, 33.6965637]}, "type": "Feature", "properties": {"category": "Groccery Store", "hours": "3am - 10pm", "description": "Get grocceries here", "name": "Wallmart", "phone": "237-393-9500", "storeid": "fd02eefc-2dba-4b19-a16b-b89bc9947439"}}, {"geometry": {"type": "Point", "coordinates": [-117.2890353, 34.125036]}, "type": "Feature", "properties": {"category": "Groccery Store", "hours": "6am - 9pm", "description": "Get grocceries here", "name": "Shoppers", "phone": "542-218-7725", "storeid": "15cf51bc-fc6d-4da8-bbb1-9873db5259dc"}}]}