{"type": "FeatureCollection", "features": [{"geometry": {"type": "Point", "coordinates": [-117.7736106, 33.9958833]}, "type": "Feature", "properties": {"category": "Groccery Store", "hours": "3am - 10pm", "description": "Get grocceries here", "name": "Food4More", "phone": "275-313-8118", "storeid": "73945c8f-07fc-488d-ac88-5515bc80baf7"}}, {"geometry": {"type": "Point", "coordinates": [-117.9157545, 33.8156879]}, "type": "Feature", "properties": {"category": "Groccery Store", "hours": "3am - 10pm", "description": "Get grocceries here", "name": "WrongAid", "phone": "973-761-8910", "storeid": "da707a1b-50b9-4372-bb17-ca85e22593c6"}}, {"geometry": {"type": "Point", "coordinates": [-117.9031901, 33.8067768]}, "type": "Feature", "properties": {"category": "Groccery Store", "hours": "6am - 9pm", "description": "Get grocceries here", "name": "Big Foods", "phone": "834-274-7772", "storeid": "c585990f-7801-4704-a1b8-4c1b81491c7c"}}, {"geometry": {"type": "Point", "coordinates": [-117.5769865, 33.913032]}, "type": "Feature", "properties": {"category": "Groccery Store", "hours": "7am - 11pm", "description": "Get grocceries here", "name": "Big Foods", "phone": "918-231-1050", "storeid": "1081c04d-5566-42ae-a95d-ba6f7aab1700"}}, {"geometry": {"type": "Point", "coordinates": [-117.584448, 33.6874188]}, "type": "Feature", "properties": {"category": "Groccery Store", "hours": "7am - 11pm", "description": "Get grocceries here", "name": "FoodCity", "phone": "747-379-3522", "storeid": "a13cc9e0-21fe-471f-9697-57f3c64bb4fa"}}, {"geometry": {"type": "Point", "coordinates": [-118.1525781, 33.6506179]}, "type": "Feature", "properties": {"category": "Groccery Store", "hours": "6am - 9pm", "description": "Get grocceries here", "name": "WrongAid", "phone": "288-779-5850", "storeid": "df88cfbe-7938-49a1-bf3e-a547946b8220"}}, {"geometry": {"type": "Point", "coordinates": [-117.4985225, 34.0733719]}, "type": "Feature", "properties": {"category": "Groccery Store", "hours": "7am - 11pm", "description": "Get grocceries here", "name": "Targate", "phone": "680-040-6736", "storeid": "d59fa8ff-482b-404c-83d3-f7c9b3736920"}}, {"geometry": {"type": "Point", "coordinates": [-117.6225348, 34.0913553]}, "type": "Feature", "properties": {"category": "Groccery Store", "hours": "7am - 11pm", "description": "Get grocceries here", "name": "Albertdaughters", "phone": "649-818-8238", "storeid": "be4da72f-083a-409c-bfb4-efc5f502ae10"}}]}