{"type": "FeatureCollection", "features": [{"geometry": {"type": "Point", "coordinates": [-117.0284809, 33.5021331]}, "type": "Feature", "properties": {"category": "Groccery Store", "hours": "7am - 11pm", "description": "Get grocceries here", "name": "Keyless Foods", "phone": "205-244-9026", "storeid": "8db5b800-5b28-4aac-a852-ba9affc616df"}}, {"geometry": {"type": "Point", "coordinates": [-117.6341998, 34.1127154]}, "type": "Feature", "properties": {"category": "Groccery Store", "hours": "7am - 11pm", "description": "Get grocceries here", "name": "WrongAid", "phone": "440-792-1530", "storeid": "2ff52095-b1e9-46c5-a961-f4e19c2b8b9f"}}, {"geometry": {"type": "Point", "coordinates": [-117.9069832, 33.9039827]}, "type": "Feature", "properties": {"category": "Groccery Store", "hours": "7am - 11pm", "description": "Get grocceries here", "name": "Beach Sand", "phone": "892-662-0906", "storeid": "945e8a1b-2956-4ed2-8366-419f9595a39b"}}, {"geometry": {"type": "Point", "coordinates": [-117.4895158, 33.9563682]}, "type": "Feature", "properties": {"category": "Groccery Store", "hours": "6am - 9pm", "description": "Get grocceries here", "name": "WrongAid", "phone": "343-032-0169", "storeid": "f7682f48-c823-49f7-ab73-9e9fb50539fc"}}, {"geometry": {"type": "Point", "coordinates": [-117.6620436, 33.521233]}, "type": "Feature", "properties": {"category": "Groccery Store", "hours": "7am - 11pm", "description": "Get grocceries here", "name": "WrongAid", "phone": "729-593-9513", "storeid": "8292ae8f-94c6-441c-b7b9-613b166109ba"}}]}